[
  {
    "category": "Battles, killings and executions",
    "image": "https://static.wixstatic.com/media/c62682_7610ca7d87a546de9f3ff5badd48950a~mv2.png",
    "locations": [
      {
        "name": "Aberlady",
        "description": "A gang of 280 men hunted for the Provost of Edinburgh, here in 1556, hoping to kill him. The Sinclairs and Achesons of Gifford also fought here in 1565, with 1 man killed.",
        "longitude": -2.859444,
        "latitude": 56.009209
      },
      {
        "name": "Akeld",
        "description": "Scots forces killed men here in 1297.",
        "longitude": -2.070517,
        "latitude": 55.560997
      },
      {
        "name": "Alnwick",
        "description": "16 reivers were executed here in 1528.",
        "longitude": -1.706299,
        "latitude": 55.412744
      },
      {
        "name": "Alnwick (Battle of)",
        "description": "Many Scots were killed here in 1193, including King Malcolm III and his heir, Edward. Scotland's Queen Margaret also dies when she heard the news.",
        "longitude": -1.72153,
        "latitude": 55.411994
      },
      {
        "name": "Alston Moor",
        "description": "Scottish reivers killed 3 men here in 1595.",
        "longitude": -2.403464,
        "latitude": 54.783383
      },
      {
        "name": "Amisfield",
        "description": "Richard Latymer was hanged and quartered here in 1547.",
        "longitude": -3.567498,
        "latitude": 55.128994
      },
      {
        "name": "Ancrum",
        "description": "William Kerr of Ancrum and others killed 2 burgesses of Jedburgh in 1572.",
        "longitude": -2.597781,
        "latitude": 55.512251
      },
      {
        "name": "Ancrum Moor",
        "description": "Around 200 Englishmen were killed here, in 1545.",
        "longitude": -2.604266,
        "latitude": 55.539716
      },
      {
        "name": "Annan",
        "description": "About 100 Scots were killed here in 1332, in a fight between Scottish supporters of the Bruces and the Balliols. The attack occurred at night time, forcing Edward Balliol to escape naked, on horseback. English reivers killed a man during a raid here in 1592. Another man was mutilated.",
        "longitude": -3.259773,
        "latitude": 54.990246
      },
      {
        "name": "Applegarth Town",
        "description": "The Grahams killed 2 Jardines here in 1571.",
        "longitude": -3.4,
        "latitude": 55.133333
      },
      {
        "name": "Appleby-in-Westmorland",
        "description": "Richard Clifford of Appleby was known as “the butcher” for killing the Duke of York and his young son in 1460.",
        "longitude": -2.489614,
        "latitude": 54.578302
      },
      {
        "name": "Arkinholm",
        "description": "The Douglases fought a pitched battle with King James II here in 1455. Archibald Douglas, Earl of Moray, was killed and his head presented to the king. His brother Hugh, Earl of Ormonde was also beheaded.",
        "longitude": -2.99965,
        "latitude": 55.155417
      },
      {
        "name": "Askerton Castle",
        "description": "Rinion Armstrong was murdered here in 1597.",
        "longitude": -2.703475,
        "latitude": 55.016211
      },
      {
        "name": "Athelstaneford",
        "description": "Local man George Hepburn was among 74 accused of killing John Geddes in 1568.",
        "longitude": -2.750891,
        "latitude": 55.987721
      },
      {
        "name": "Auchen Castle",
        "description": "The owners (Kirkpatricks) of this castle were implicated in the murder of John Comyn in 1306.",
        "longitude": -3.479175,
        "latitude": 55.32738
      },
      {
        "name": "Auchencorth",
        "description": "A Rutherford and Davidson were hanged for theft here in 1528.",
        "longitude": -3.238521,
        "latitude": 55.794547
      },
      {
        "name": "Bailey Head",
        "description": "Lancie Armstrong killed a man and wounded a dozen others here in 1580.",
        "longitude": -2.758927,
        "latitude": 55.098474
      },
      {
        "name": "Bamburgh",
        "description": "In 1597, the Scots broke into Sir John Foster’s house and tried to kill him but his wife managed to bolt the chamber door.",
        "longitude": -1.714821,
        "latitude": 55.607643
      },
      {
        "name": "Barholm",
        "description": "The Browns of Carsluith Castle killed the Laird of Barholm in 1579.",
        "longitude": -4.384434,
        "latitude": 54.905318
      },
      {
        "name": "Barnhills Tower",
        "description": "In 1502, the Turnbulls of Barnhills admitted various burnings and murders.",
        "longitude": -2.652565,
        "latitude": 55.482742
      },
      {
        "name": "Bassendean",
        "description": "The Halls stole a horse here in 1510. Robert Hall was sentenced to be hanged.",
        "longitude": -2.586226,
        "latitude": 55.706162
      },
      {
        "name": "Bedrule",
        "description": "20 Turnbulls were fined at Jedburgh in 1502, for killing Robert Oliver. Two Turnbulls from here were acquitted of killing John Forbes in 1577.",
        "longitude": -2.631966,
        "latitude": 55.457447
      },
      {
        "name": "Belchester",
        "description": "John Dixon of Belchester led a gang of 280 men, trying to kill Archibald Douglas in 1556.",
        "longitude": -2.334926,
        "latitude": 55.690812
      },
      {
        "name": "Bellingham",
        "description": "Roger Fenwick, Keeper of Tynedale, was murdered here in 1537 “by three naughtie persons.” In 1596, the Elliots killed 3 men here and in 1597 the Scotts killed 3.",
        "longitude": -2.254156,
        "latitude": 55.14578
      },
      {
        "name": "Bemersyde",
        "description": "The English commander Lord Evers died here in 1544, after the Battle of Ancrum Moor.",
        "longitude": -2.644078,
        "latitude": 55.59612
      },
      {
        "name": "Birkshaw",
        "description": "Scottish reivers killed 4 men here in 1529.",
        "longitude": -2.235112,
        "latitude": 55.09607
      },
      {
        "name": "Berwick Road",
        "description": "About 20 English soldiers died from drinking puddle water, on the way back from their great raids of 1542.",
        "longitude": -2.319341,
        "latitude": 55.649726
      },
      {
        "name": "Berwick-upon-Tweed",
        "description": "English forces massacred thousands of townsfolk here in 1296, after Edward I ordered the mills to run with Scottish blood. In 1306, Nigel Bruce (brother of Robert) was hanged drawn and quartered here. In the siege of 1333, Edward III hanged 12 hostages at Hang-a-dyke Nook, in an attempt to force the authorities to surrender (the governor’s sons were 2 of the victims). In the siege of 1378 English forces killed the castle’s entire garrison apart from one man.",
        "longitude": -2.005395,
        "latitude": 55.770242
      },
      {
        "name": "Berwick-upon-Tweed",
        "description": "The town witnessed many murders. For instance, Scottish assassins killed a man in 1592, before escaping. The Selbys also fought with the Grays in the churchyard, in 1596, with one dead and 4 or 5 gravely injured on each side.",
        "longitude": -2.004429,
        "latitude": 55.770049
      },
      {
        "name": "Berwick Walls",
        "description": "Scottish reivers shot an English scout under the walls, in 1596.",
        "longitude": -2.016086,
        "latitude": 55.774897
      },
      {
        "name": "Bewcastle",
        "description": "This town was the scene of many murders, thanks to its ties with notorious reivers. For instance, the Nixons and Crosers killed dozens of Lord Dacre’s men in 1528. The Armstrongs killed 7 men here in 1541. They also killed a man in 1583, cutting another man’s leg off in the process. The Scotts killed 3 men and a pregnant woman here in 1588 – and another man in 1595. The Armstrongs also killed men in 1592, 1596 and 1599 (in this case 3 men, after a day of “football and hard drinking”). The locals also inflicted losses, with at least one reiver killed in 1595.",
        "longitude": -2.683449,
        "latitude": 55.066016
      },
      {
        "name": "Blackadder",
        "description": "John Hume of Blackadder and his brother were involved in the murder of David Falconer  around 1532. Several members of the Blackadder family were also murdered by the Humes around this time.",
        "longitude": -2.244527,
        "latitude": 55.76602
      },
      {
        "name": "Black Law",
        "description": "The Armstrongs killed a man here one Midsummer in the 1570s.",
        "longitude": -3.233333,
        "latitude": 55.533333
      },
      {
        "name": "Blennerhasset",
        "description": "Reivers killed several people here in 1592.",
        "longitude": -3.278155,
        "latitude": 54.762087
      },
      {
        "name": "Bloody Bush Road",
        "description": "Some reivers were once killed here, at a place now known as the Bloody Bush.",
        "longitude": -2.599506,
        "latitude": 55.197123
      },
      {
        "name": "Blyth Bridge",
        "description": "Thomas Burn was murdered here in 1493. The Flemings also killed a man here in 1545.",
        "longitude": -3.375819,
        "latitude": 55.695994
      },
      {
        "name": "Bonchester Bridge",
        "description": "Peter Turnbull of Bonchester murdered James Rutherford at the Kirk of Hawick in 1502. At trial, Turnbull paid remission for a huge list of offences, spanning theft to burning.",
        "longitude": -2.654054,
        "latitude": 55.399276
      },
      {
        "name": "Bonshaw Tower",
        "description": "3 men were killed in a siege here in 1585, as the Maxwells tried to take the tower from the Irvings. They attacked it again in 1586.",
        "longitude": -3.186762,
        "latitude": 55.037586
      },
      {
        "name": "Brackenhill Tower",
        "description": "Home of notorious reiver Richie Graham. Graham was personally responsible for at least 4 murders, among many crimes. He was even found to have a coin counterfeiter working here in 1596.",
        "longitude": -2.868358,
        "latitude": 55.016826
      },
      {
        "name": "Braidhaugh",
        "description": "Thomas Dagliesh of Braidhaugh was hanged for receiving stolen horses in 1510.",
        "longitude": -2.643871,
        "latitude": 55.388716
      },
      {
        "name": "Brinkburn Priory and Manor House",
        "description": "The Lisles (including 13 year old Humphrey Lisle, who would later become a notorious reiver) murdered the canon of Brinkburn here in 1521.",
        "longitude": -1.818947,
        "latitude": 55.278902
      },
      {
        "name": "Broomhouse",
        "description": "A gang of Humes murdered the French diplomat Antoine De La Bastie and 4 other Frenchmen here, in 1517.",
        "longitude": -2.301979,
        "latitude": 55.800871
      },
      {
        "name": "Buccleuch",
        "description": "Walter Scott AKA “the Bold Buccleuch” was guilty of 20 murders by his own hand according to Sir William Bowes in 1596. His men were accused of 50 murders.",
        "longitude": -3.067934,
        "latitude": 55.419376
      },
      {
        "name": "Buckholm",
        "description": "300 Armstrongs and Elliots sacked the tower here and murdered its owner George Hoppringle, in 1568.",
        "longitude": -2.821775,
        "latitude": 55.639061
      },
      {
        "name": "Burgh by Sands",
        "description": "King Edward I died here in 1307, while waging war on the Scots.",
        "longitude": -3.051111,
        "latitude": 54.922182
      },
      {
        "name": "Caerlanrig",
        "description": "King James V hanged between 36 and 48 members of the Armstrong clan (including the infamous Johnnie Armstrong of Gilnockie) at Caerlanrig in 1530.",
        "longitude": -2.724691,
        "latitude": 55.434386
      },
      {
        "name": "Caerlaverock",
        "description": "English forces hanged 11 men from this area in 1548 - including Sir Herbert Maxwell, Vicar of Caerlaverock.",
        "longitude": -3.530703,
        "latitude": 54.987177
      },
      {
        "name": "Caerlaverock Castle",
        "description": "Sir James Lindsay murdered Sir Roger Kirkpatrick here in 1357.",
        "longitude": -3.524011,
        "latitude": 54.975654
      },
      {
        "name": "Capon Tree Road",
        "description": "Reivers were hanged on this road and their caps nailed to the tree, giving the road its name.",
        "longitude": -2.737162,
        "latitude": 54.932584
      },
      {
        "name": "Cardrona",
        "description": "The Scotts of Tushielaw killed the owner of Cadrona here in 1601. Locals mutilated one of the Kerrs in 1608.",
        "longitude": -3.109373,
        "latitude": 55.638801
      },
      {
        "name": "Carham",
        "description": "Many men – including 18 monks from the local monastery - were killed here in a battle between English and Scottish forces, in 1018. Scottish forces also fought here in 1377. The Pringles murdered a man during a revenge raid in 1596.",
        "longitude": -2.320551,
        "latitude": 55.638678
      },
      {
        "name": "Carlingwark Loch",
        "description": "The Maxwells killed a man here in 1610.",
        "longitude": -3.932377,
        "latitude": 54.931436
      },
      {
        "name": "Carlisle",
        "description": "The town was the scene of many executions. For instance, two of Robert the Bruce’s brothers were beheaded here in 1306. In 1323, Sir Andrew de Hercla was executed for aiding the Scots. In 1602, 6 reivers were executed for raiding the town and in 1605, 4 Grahams were executed for escaping prison. The town was also the scene of many murders – for instance the Grahams murdered one of their kin here in 1584 and also murdered someone here at Christmas 1599. In 1603, the Royal Commission ensured that 32 reivers were hanged, 15 banished and 140 outlawed.",
        "longitude": -2.932931,
        "latitude": 54.892473
      },
      {
        "name": "Carsluith",
        "description": "The Browns of Carsluith murdered the Laird of Barholm as part of a religious feud, in 1579.",
        "longitude": -4.359274,
        "latitude": 54.866133
      },
      {
        "name": "Carter Fell",
        "description": "The Croziers butchered Parcy Reed near here, around 1590. They rained 33 blows upon him, before dismembering him and throwing his limbs in the river, where his family collected them in pillow-cases.",
        "longitude": -2.516667,
        "latitude": 55.316667
      },
      {
        "name": "Castlemilk",
        "description": "The Grahams tried to kill Robert Maxwell here in 1592.",
        "longitude": -3.326649,
        "latitude": 55.086455
      },
      {
        "name": "Catslack",
        "description": "Sir James Douglas of Tortherwald killed Captain James Stewart here in 1596. Douglas was described in contemporary reports as “a man full of violence” and carried the head around on a lance, throughout the country. Dogs and pigs were also allowed to feed on the body before burial. Douglas himself was later killed by the Stewarts in 1613 on Edinburgh High St.",
        "longitude": -3.027166,
        "latitude": 55.541758
      },
      {
        "name": "Catslack Tower",
        "description": "English forces burnt Elizabeth Scott and others alive here, in their 1548 raid on Catslack Tower.",
        "longitude": -3.022102,
        "latitude": 55.540302
      },
      {
        "name": "Caulside",
        "description": "3 or 4 Scots and 1 Englishman were killed near here in 1581, as reivers tried to escape with their plunder.",
        "longitude": -2.876846,
        "latitude": 55.113292
      },
      {
        "name": "Cessford Castle",
        "description": "A gang from here murdered a man at Ford of Cale, in 1493, while stealing his horse, saddle, satchel, bow and purse. Sir Robert Kerr of Cessford was personally accused of 8 murders in 1596 alone, probably 16 in total.",
        "longitude": -2.416327,
        "latitude": 55.507651
      },
      {
        "name": "Chattlehope Burn",
        "description": "3 reivers were killed in a fight here.",
        "longitude": -2.438157,
        "latitude": 55.312966
      },
      {
        "name": "Chatton",
        "description": "Scottish reivers killed Richard Reveley of Chatton  in 1595.",
        "longitude": -1.91501,
        "latitude": 55.547141
      },
      {
        "name": "Cherrytrees",
        "description": "James Tait of Kelso was charged with murder here in 1605 with his accomplices “armed with swords, steel bonnets, lances and pistols.”",
        "longitude": -2.302745,
        "latitude": 55.556706
      },
      {
        "name": "Chipchase Castle",
        "description": "Several Scottish reivers were killed in a raid here, in 1528. Sir John Heron killed Roger Fenwick in 1537, as part of an ongoing feud. In 1575, Sir George Heron was murdered in the notorious clash at Redeswire.",
        "longitude": -2.19176,
        "latitude": 55.079183
      },
      {
        "name": "Chillingham Castle",
        "description": "8 members of the Grey family were executed for high treason.",
        "longitude": -1.904342,
        "latitude": 55.525957
      },
      {
        "name": "Chirnside",
        "description": "English forces burnt this place in 1497 and 1565 “with some slaughter”",
        "longitude": -2.209192,
        "latitude": 55.801765
      },
      {
        "name": "Closeburn",
        "description": "The Johnstones raided this place in 1585, during a spree which took 18 lives. In 1611, Alexander Kilpatrick murdered James Carmichael here.",
        "longitude": -3.73443,
        "latitude": 55.213014
      },
      {
        "name": "Cockburnspath",
        "description": "English forces burnt this place in 1532, with the help of rebels like Alexander Hume (who was later beheaded).",
        "longitude": -2.360664,
        "latitude": 55.932112
      },
      {
        "name": "Cockermouth",
        "description": "A man was killed by the wheel of his own cart, during a raid to arrest reivers in 1605.",
        "longitude": -3.367985,
        "latitude": 54.663261
      },
      {
        "name": "Cocklaw Tower",
        "description": "John Gledstone of Cocklaw was charged with 2 murders in 1561",
        "longitude": -2.757689,
        "latitude": 55.419997
      },
      {
        "name": "Cockpen",
        "description": "George Broune of Cockpen was hanged here in 1610, for stealing horses from Newbattle park.",
        "longitude": -3.077272,
        "latitude": 55.86216
      },
      {
        "name": "Coldingham Priory",
        "description": "In 1420, the prior burnt some reivers alive, while trying to remove them from the church. Two later priors were murdered here, in 1518 (David Hume) and 1519 (Robert Blackadder).",
        "longitude": -2.155239,
        "latitude": 55.88649
      },
      {
        "name": "Colwell",
        "description": "Reivers killed 2 men from here in 1582.",
        "longitude": -2.074458,
        "latitude": 55.073428
      },
      {
        "name": "Congalton House",
        "description": "Henry Congalton of Congalton killed Oliver Congalton by poisoning him in 1554. The same year, Henry and 5 others attacked William Chirnside in his home. Chirnside wounded Congalton “to the effusion of his blood” and killed one of his men. Henry Conglaton was one of many men implicated in the murder of John Geddes in 1565.",
        "longitude": -2.735804,
        "latitude": 56.016815
      },
      {
        "name": "Conheath",
        "description": "Robert Maxwell of Conheath was murdered by 3 men in 1530 and then his brother James murdered John Chalmer, before going on the run.",
        "longitude": -3.571419,
        "latitude": 55.013226
      },
      {
        "name": "Copshaw",
        "description": "John Elliot of Copshaw famously wounded the Earl of Bothwell in 1566, before being killed himself.",
        "longitude": -2.813325,
        "latitude": 55.179364
      },
      {
        "name": "Corbet Tower House",
        "description": "John Rutherford killed Andrew Kerr of Corbet house in 1558, sparking a 2 year feud.",
        "longitude": -2.351536,
        "latitude": 55.509055
      },
      {
        "name": "Corsbie Tower",
        "description": "In 1609, the Cranstouns and Frenches shot pistols at each other. Then in 1612, Johnne Cranstoun was murdered by the Frenches (their leader was beheaded). Gilbert Cranstoun of Corsbie was hanged the same year, for various reiving offences and feuding.",
        "longitude": -2.625711,
        "latitude": 55.686452
      },
      {
        "name": "Covington",
        "description": "The Douglases killed a man here in 1494.",
        "longitude": -3.630103,
        "latitude": 55.641359
      },
      {
        "name": "Cowdenknowes",
        "description": "John Hume of Cowdenknowes was a very violent man. In 1537, he and a gang of 120 men waylaid the Abbott of Melrose. In 1552, he killed “Wicked” Wat Scott in Edinburgh. In 1554, he killed a Fenchman and brutally wounded another at Newbattle. In 1565 he was one of the leaders of 1,000 Humes, who raided the Kerrs of Ferniehurst and in 1569 his sons killed John Haitlie of Mellerstain.",
        "longitude": -2.669525,
        "latitude": 55.624966
      },
      {
        "name": "Crawford",
        "description": "The Bells and Armstrongs killed 2 men here in 1585.",
        "longitude": -3.652242,
        "latitude": 55.470249
      },
      {
        "name": "Crichton Castle",
        "description": "16 Crichtons were killed in a bloody feud with the Johstones in the 1500s.",
        "longitude": -2.991336,
        "latitude": 55.838914
      },
      {
        "name": "Dalfibble",
        "description": "The Maxwells killed several Johnstones here in 1602.",
        "longitude": -3.501724,
        "latitude": 55.158506
      },
      {
        "name": "Dalhousie Castle",
        "description": "Nicholas Ramsay killed his brother George here in 1526. Nicholas Ramsay then killed Patrick Henry and was himself beheaded in 1555.",
        "longitude": -3.0828,
        "latitude": 55.860765
      },
      {
        "name": "Dally",
        "description": "According to legend, the daughter of the Dally Castle owner fell in love with their enemy, Gilbert, and her brother killed him at Gib’s Cross.",
        "longitude": -2.345588,
        "latitude": 55.156054
      },
      {
        "name": "Dalveen Pass",
        "description": "The Johnstones killed a man here in 1597.",
        "longitude": -3.733333,
        "latitude": 55.35
      },
      {
        "name": "Darlington",
        "description": "Scottish forces attacked this place in 1322 and 1327 (with several killed).",
        "longitude": -1.559458,
        "latitude": 54.52361
      },
      {
        "name": "Debatable Land",
        "description": "This was the scene of countless murders. So much so that, in an effort to root out the culprits, the Scottish and English governments combined in 1537 and 1551, to declare that anybody could kill the inhabitants here, rob them or burn their houses, without legal consequence.",
        "longitude": -2.935739,
        "latitude": 55.133613
      },
      {
        "name": "Denwick",
        "description": "Scottish reivers stole all the village’s horses in 1596. The locals recovered them and killed the reiver leader – an infamous fellow named James Burne – with a shot in the back.",
        "longitude": -1.676136,
        "latitude": 55.423471
      },
      {
        "name": "Dilston",
        "description": "The notorious reiver Hob Elwold was executed here in 1531, after being apprehended by the even more notorious Humphrey Lisle.",
        "longitude": -2.037051,
        "latitude": 54.963709
      },
      {
        "name": "Dirleton",
        "description": "David Falcoun (Captain of the KIng's Footmen) was killed here in 1528 (probably by the Douglases).",
        "longitude": -2.778098,
        "latitude": 56.047358
      },
      {
        "name": "Dinwoodie Mains",
        "description": "Thomas Dinwoodie was murdered here in 1504. That same year, Nicholas Dinwoodie was hanged for his own violent crimes and Robert Dinwoodie was convicted of theft. In 1508 Patrick Dinwoodie was hanged for murdering the laird of Glendinning. In 1583, Robert Maxwell was killed here, by 3 other Maxwells.",
        "longitude": -3.402762,
        "latitude": 55.202901
      },
      {
        "name": "Dolphinston",
        "description": "Two men from here killed Sir William Colvile of Ochiltree in 1509.",
        "longitude": -2.492886,
        "latitude": 55.429434
      },
      {
        "name": "Donkleywood",
        "description": "The Scotts killed 35 people in this area (including 7 burnt alive) in 1597. It was the 3rd time Scottish reivers had raided the area in a week. Scott of Buccleuch claimed it was in response to Tynedale men killing 2 Scots and blamed the “obstinate” locals for being burnt alive, as they should have trusted him and opened their doors.",
        "longitude": -2.404088,
        "latitude": 55.169582
      },
      {
        "name": "Drawdykes ",
        "description": "The Carletons killed the owner of Drawdykes Castle in 1599.",
        "longitude": -2.918524,
        "latitude": 54.920252
      },
      {
        "name": "Dreva on Tweed",
        "description": "Adam Tweedy of Dreva mutilated Robert Rammage by cutting his ears off in 1565.",
        "longitude": -3.368706,
        "latitude": 55.607893
      },
      {
        "name": "Drumburgh",
        "description": "The Armstrongs raided this place in 1602. The locals tracked the culprits, burnt the door of their tower and killed the ringleader.",
        "longitude": -3.146951,
        "latitude": 54.927236
      },
      {
        "name": "Drumelzier",
        "description": "The Tweedies of Drumelzier were an extremely violent family. They murdered Sir John Fleming in 1534 and William Geddes in 1559. In 1565, they cut the ears off a man called Robert Rammage. The next year, they were implicated in the murder of David Rizzio at Holyroodhouse. They then killed the Provost of Peebles in 1572, “many” reivers at Riskinhope in 1587 and Patrick Veitch at Peebles 1590. Finally, they killed James Geddes in Edinburgh, in 1592 and Walter Scott of Tushielaw in 1612.  They were still cited as being involved in various feuds, in 1621.",
        "longitude": -3.373051,
        "latitude": 55.594571
      },
      {
        "name": "Drumlanrig",
        "description": "The Earl of Angus hanged some hostages here in 1548.",
        "longitude": -3.837056,
        "latitude": 55.275162
      },
      {
        "name": "Drumlanrig's Tower",
        "description": "James Douglas of Drumlanrig killed the rector of Kirkbride in 1543. Drumlanrig’s bother killed William Dalziel in 1555. 2 Johnstones were killed on a raid here, in 1597.",
        "longitude": -2.788016,
        "latitude": 55.421236
      },
      {
        "name": "Dryfe Sands",
        "description": "Over 700 feuding Maxwells and Johnstones were killed here, in 1593.",
        "longitude": -3.400583,
        "latitude": 55.124793
      },
      {
        "name": "Dryhope",
        "description": "A local reiver named Howloose was killed by the English Warden's posse near here in 1584.",
        "longitude": -3.161264,
        "latitude": 55.510762
      },
      {
        "name": "Dryhope Tower",
        "description": "Dickie Dryhope was a notorious reiver who was responsible for many killings, including a pregnant woman.",
        "longitude": -3.161682,
        "latitude": 55.510824
      },
      {
        "name": "Dumfries",
        "description": "This place was the scene of many infamous murders. Most notoriously, Robert the Bruce stabbed John and Richard Comyn to death at the altar of Greyfriars Church in 1306. In 1504, Robert Grersoune killed a chaplain here. In 1587, Archibald McBrair killed Archibald Newall (and was sent to Edinburgh to be beheaded). In 1596, the notorious reiver Johnne Carruthers shot a man dead here. In 1608, Lord Maxwell murdered Lord Johnstone, as part of their long feud (he was later beheaded in Edinburgh). And in 1613, another Maxwell (“Achilles John”) killed a man with 2 blows to the head and 30 to the body.",
        "longitude": -3.60512,
        "latitude": 55.070859
      },
      {
        "name": "Dumfries - executions",
        "description": "Dumfries was also used as a place of execution. Robert the Bruce’s brother-in-law was hanged, drawn and quartered here in 1306. In 1504, the reivers Gilbert Thomsone and Adam Baty were hanged here. In 1602, over 30 reivers were hanged -and another 32 in 1603 (prompting the townsfolk to turn on the authorities and hack their way out). There wee also mass hangings in 1609.",
        "longitude": -3.59811,
        "latitude": 55.064961
      },
      {
        "name": "Dunbar",
        "description": "2 men were hanged for trying to break out prisoners from the castle in 1512. English forces killed 12 men here in 1544. Sir John Howdene, the chaplain of Dunbar killed a man in 1553 and tried to kill 4 more in 1554.",
        "longitude": -2.516737,
        "latitude": 56.002087
      },
      {
        "name": "Duncow",
        "description": "The Johnstones killed a man here in 1585, during their feud with Maxwells.",
        "longitude": -3.622254,
        "latitude": 55.134553
      },
      {
        "name": "Duns",
        "description": "4 men mutilated Hugh Lauder here in 1554 (in retaliation for Robert Lauder mutilating one of them a month before). George Stephenson was abducted by the Humes of Red Braes and taken back here to be executed in 1596.",
        "longitude": -2.343461,
        "latitude": 55.777794
      },
      {
        "name": "Eccles",
        "description": "English forces killed 8 men in the abbey here, in 1544.",
        "longitude": -2.374772,
        "latitude": 55.667212
      },
      {
        "name": "Eckford",
        "description": "English forces killed 34 people here in 1544.",
        "longitude": -2.456619,
        "latitude": 55.528946
      },
      {
        "name": "Ednam",
        "description": "James Pilmure murdered 2 men here in 1494.",
        "longitude": -2.417497,
        "latitude": 55.627746
      },
      {
        "name": "Edinburgh - Blackfriars",
        "description": "Lord Bothwell killed William Stewart here in 1586.",
        "longitude": -3.185921,
        "latitude": 55.949713
      },
      {
        "name": "Edinburgh - Blackfriars Wynd",
        "description": "Up to 80 Hamiltons were killed at the top of Blackfriars Street by the Douglases in 1520, an event known as “Cleanse the causeway”.",
        "longitude": -3.186296,
        "latitude": 55.950338
      },
      {
        "name": "Edinburgh - Boroughmuir",
        "description": "The reiver Lyell Hall was hanged at Borougmuir in 1563. The body of Thomas Armstrong was hanged in chains here, in 1601.",
        "longitude": -3.206005,
        "latitude": 55.937769
      },
      {
        "name": "Edinburgh Castle",
        "description": "The Earl of Douglas and his young brother were murdered here at the infamous “Black Dinner’ in 1440. English forces killed over 500 Scots here in 1544.",
        "longitude": -3.199914,
        "latitude": 55.948595
      },
      {
        "name": "Edinburgh - Castlehill",
        "description": "Many Border lords and reivers were executed on Castle Hill or in the Grassmarket. For instance, 10 Border men were executed here for sheepstealing and murder in 1512. Lord Home and his brother William were executed here in 1516 (in 1520 their brother George stole the heads from the Tolbooth in a night raid). Adam Scott, “The King of Thieves”, was beheaded here in 1530. George Scott “of the Bog” was stripped naked and burnt here in 1532. 6 reivers were hanged here in 1562, while their associates were drowned in Hawick. Another 5 were hanged in in 1564, including Hob “Colyfurd” Scott, John “the Clerk” Scot and Mark Elliot “of the Hill”. In 1598, the Laird of Johnstone was hanged upside down in chains for murdering various Maxwells in their long-running feud (Lord Maxwell was later beheaded for murdering Sir James Johnstone). Thomas Armstrong was hanged in 1600, for the murder of Sir John Carmichael. Two more Armstrongs and an Irving were hanged in 1612.",
        "longitude": -3.196413,
        "latitude": 55.94884
      },
      {
        "name": "Edinburgh - Cowgate",
        "description": "The Tweedys of Drumelzier were involved in many Border feuds which spilled over into Edinburgh. For instance, in 1498, the Cockburns mutilated Andrew Tweedy here. Then in 1563, three men from Polmude killed James Tweedy, as he slept by the fire. In 1590, the Veitches murdered John Tweedy. The Tweedys got some revenge by shooting an accomplice of the Veitches in the Cowgate, in 1592.",
        "longitude": -3.188181,
        "latitude": 55.948619
      },
      {
        "name": "Edinburgh - Craigmillar Castle",
        "description": "This castle was the centre of a plot (The Craigmillar Bond) to murder Lord Darnley, in 1566.",
        "longitude": -3.140773,
        "latitude": 55.926084
      },
      {
        "name": "Edinburgh - Grassmarket",
        "description": "In 1581, James Douglas, Earl of Morton, was beheaded in the Grassmarket, in relation to the murder of Lord Darnley.",
        "longitude": -3.196149,
        "latitude": 55.94734
      },
      {
        "name": "Edinburgh - High St",
        "description": "The Kerrs murdered Sir Walter Scott (an ancestor of the writer) on the High Street in 1552, as part of their long-running Border feud.",
        "longitude": -3.188013,
        "latitude": 55.950117
      },
      {
        "name": "Edinburgh - Holyroodhouse",
        "description": "Several Borders lords were involved in the murder of David Rizzio in 1566.",
        "longitude": -3.172272,
        "latitude": 55.952714
      },
      {
        "name": "Edinburgh - Kirk O' Field ",
        "description": "Lord Darnley was murdered here (probably strangled after an explosion did not kill him) in 1567. The Borders aristocrat Bothwell was the likeliest culprit, although he was acquitted.",
        "longitude": -3.187064,
        "latitude": 55.947207
      },
      {
        "name": "Edinburgh - Old Mercat Cross",
        "description": "Thomas Armstrong had his hand cut off here, before being hanged in 1601, for the murder of Sir John Carmichael.",
        "longitude": -3.191947,
        "latitude": 55.949427
      },
      {
        "name": "Edinburgh - Old Tolbooth",
        "description": "The heads of the Hume brothers were displayed here in 1516. A few years later, one of the remaining brothers liberated the skulls, with the help of the Douglases and took them away for burial. The Tweedies of Drumelzier also murdered Sir John Fleming here in 1534",
        "longitude": -3.191725,
        "latitude": 55.949431
      },
      {
        "name": "Edinburgh - St Giles",
        "description": "Gordon of Lochinvar murdered Thomas McLellan on the steps of the cathedral in 1526, as part of a Galloway feud.",
        "longitude": -3.190892,
        "latitude": 55.949484
      },
      {
        "name": "Egremont",
        "description": "3 reivers from here were executed in 1605.",
        "longitude": -3.528926,
        "latitude": 54.480973
      },
      {
        "name": "Elishaw",
        "description": "Scottish reivers killed two men here in 1582.",
        "longitude": -2.220381,
        "latitude": 55.250615
      },
      {
        "name": "Elsdon",
        "description": "Reivers killed 14 men here in a raid in 1584. Hundreds of skeletons from the Battle of Otterburn were discovered in the church of St Cuthberts during restoration works in the 1800s.",
        "longitude": -2.09926,
        "latitude": 55.23479
      },
      {
        "name": "Eskdale",
        "description": "English reivers killed 3 men here in 1583.",
        "longitude": -3.248576,
        "latitude": 54.412507
      },
      {
        "name": "Eslington",
        "description": "Sir Cuthbert Collingwood killed a member of the Burns gang as they committed a raid here in 1587. His men also captured and hanged 40-50 members of the raiding party. This sparked a long feud which left 35 Collingwoods killed and forced Sir Cuthbert to leave his house.",
        "longitude": -1.934,
        "latitude": 55.403353
      },
      {
        "name": "Etal",
        "description": "English forces killed 25 Scots here in 1523",
        "longitude": -2.113939,
        "latitude": 55.649482
      },
      {
        "name": "Etal Castle",
        "description": "John Manners killed William Heron here in 1428, as he besieged the castle as part of an ongoing feud. After arbitration by the church, Manners agreed to pay for 500 Masses for Heron’s soul and give 250 Marks to his widow.",
        "longitude": -2.120159,
        "latitude": 55.647173
      },
      {
        "name": "Ettrick Forest",
        "description": "Sir William Douglas murdered his godfather (also Sir William Douglas, the notorious “knight of Liddesdale”) here in 1353.",
        "longitude": -3.06809,
        "latitude": 55.490284
      },
      {
        "name": "Eyemouth",
        "description": "The English navy landed and killed 5 people here in 1542.",
        "longitude": -2.091068,
        "latitude": 55.869058
      },
      {
        "name": "Fairnington",
        "description": "English forces killed about 200 Scots here in 1549: the last major victory for the longbow.",
        "longitude": -2.563002,
        "latitude": 55.543258
      },
      {
        "name": "Falahill",
        "description": "John Murray was murdered here in 1510, by 5 Scott brothers and Andrew Kerr.",
        "longitude": -2.97899,
        "latitude": 55.795929
      },
      {
        "name": "Falstone",
        "description": "Some men were murdered here around 1371.",
        "longitude": -2.434602,
        "latitude": 55.180692
      },
      {
        "name": "Fa'side Castle",
        "description": "English forces burnt this tower in 1547, killing everyone within.",
        "longitude": -2.997234,
        "latitude": 55.926684
      },
      {
        "name": "Fauldshope",
        "description": "James Gray of Fauldshope and 1 other killed Anthony Tait while stealing 160 sheep in 1502. At trial, Gray paid remission for this and many other crimes, including the theft of another 240 sheep.",
        "longitude": -2.946587,
        "latitude": 55.522808
      },
      {
        "name": "Featherstone",
        "description": "A gang of Ridleys murdered Sir Albany Featherstonehaugh here in 1530.",
        "longitude": -2.508506,
        "latitude": 54.942633
      },
      {
        "name": "Felkington",
        "description": "The Kerrs killed 3 Englishmen here in 1533, during a large raid.",
        "longitude": -2.091403,
        "latitude": 55.691527
      },
      {
        "name": "Ferniehirst Castle",
        "description": "30 Scots and 4 English were killed here in 1523. The Earl of Surrey said the Scots were “The boldest and hottest men that ever I saw in any nation”. Scottish forces slaughtered 130 men of the English garrison in 1549, including the commander who had his head sliced off with one blow, so that it landed 4 paces away.",
        "longitude": -2.551402,
        "latitude": 55.454297
      },
      {
        "name": "Flodden Field",
        "description": "More than 11,000 men were killed here in 1513, the vast majority of them Scots, in the nation's worst-ever defeat.",
        "longitude": -2.176515,
        "latitude": 55.62876
      },
      {
        "name": "Ford Castle",
        "description": "In 1388, the Lilburns slaughtered the entire garrison of this castle. During 1557-58, three men were killed here as a result of a feud between the Herons and the Carrs.",
        "longitude": -2.090323,
        "latitude": 55.631387
      },
      {
        "name": "Gamescleuch",
        "description": "Simon Scott built this tower in 1570 but never moved in as his mother-in-law poisoned him on the eve of his marriage to her daughter.",
        "longitude": -3.131386,
        "latitude": 55.417549
      },
      {
        "name": "Gateshaw",
        "description": "Andrew Kerr of Gateshaw and 5 Scott brothers killed John Murray of Falahill in 1510.",
        "longitude": -2.348628,
        "latitude": 55.495933
      },
      {
        "name": "Gifford",
        "description": "6 Gifford men killed John Sinclair in Aberlady in 1565. The Sinclairs came back and wounded a man in revenge.",
        "longitude": -2.746985,
        "latitude": 55.904036
      },
      {
        "name": "Gilsland",
        "description": "English chroniclers claimed that Scottish forces burnt 200 men, women and children here in 1389 although this is likely to be an exaggeration. In 1596, a gang of Scottish reivers combined to attack Thomas Carleton’s house with long ladders, to avenge his killing of a family member in 1594. Christopher Bell was later executed after confessing to 11 murders (but he was likely framed by Thomas Carleton. In 1598, a gang of Ogles broke into a house here in 1598, and murdered David Elliot (who was hiding here, after killing one of their family in a previous attack). Thomas Carleton was killed trying to apprehend the Ogles.",
        "longitude": -2.572867,
        "latitude": 54.990102
      },
      {
        "name": "Gogar",
        "description": "During the Ruthven Conspiracy of 1600, the Erskines of Gogar killed 2 of the Ruthvens.",
        "longitude": -3.336065,
        "latitude": 55.940675
      },
      {
        "name": "Goldielands Tower",
        "description": "The last occupant was said be hanged from his own gateway for stealing cattle.",
        "longitude": -2.825812,
        "latitude": 55.407467
      },
      {
        "name": "Gordon",
        "description": "3 men from here killed Andrew Redpath of Greenlaw in 1538.",
        "longitude": -2.562334,
        "latitude": 55.680488
      },
      {
        "name": "Greenhaugh",
        "description": "A gang of 300 Scotts killed 4 Charltons here in 1595 (and promised to come back for more).",
        "longitude": -2.321641,
        "latitude": 55.177829
      },
      {
        "name": "Greenlaw",
        "description": "3 men from Gordon killed Andrew Redpath of Greenlaw in 1538.",
        "longitude": -2.463809,
        "latitude": 55.706534
      },
      {
        "name": "Greenlaw Dean",
        "description": "Stevin Brounfield the young Laird of Greenlawdene was murdered here in 1564.",
        "longitude": -2.489487,
        "latitude": 55.723189
      },
      {
        "name": "Grubbit",
        "description": "Thomas Middlemas was slain by Peter Pott and Jock Pott “the bastard” at Grubbit in 1596.",
        "longitude": -2.366609,
        "latitude": 55.517287
      },
      {
        "name": "Harelaw",
        "description": "The Armstrongs of Harelaw kidnapped 4 Hendersons in 1601, killing the eldest of them, to encourage the family to pay up.",
        "longitude": -2.891533,
        "latitude": 55.098379
      },
      {
        "name": "Hadden",
        "description": "As many as 2,000 men (mostly English) were killed in the Battle of Hadden Rig in 1542.",
        "longitude": -2.337743,
        "latitude": 55.617749
      },
      {
        "name": "Haddington",
        "description": "the Duke of Atholl was murdered here in 1242, after a jousting argument. William Newton killed John Crumming here in 1545 as part of an ancient feud. About 200 Englishmen were killed here in 1548. The Earl of Bothwell also wounded John Cockburn of Ormiston here in 1559, after a sword fight. He then took £1000 that Cockburn was bringing from England, to fight the French.",
        "longitude": -2.774864,
        "latitude": 55.958674
      },
      {
        "name": "Haddington - St Mary's",
        "description": "The parish clerk George Bald killed a man here in 1553.",
        "longitude": -2.772381,
        "latitude": 55.953133
      },
      {
        "name": "Haggerston",
        "description": "Scottish reivers killed a man here in 1602.",
        "longitude": -1.934648,
        "latitude": 55.686632
      },
      {
        "name": "Halidon Hill Battlefield",
        "description": "Over 3,000 Scots were killed here in 1333.",
        "longitude": -2.036912,
        "latitude": 55.785724
      },
      {
        "name": "Haltwhistle",
        "description": "The Armstrongs engaged in a deadly feud with the Ridleys in 1570. They also killed a man here in 1599.",
        "longitude": -2.460856,
        "latitude": 54.972237
      },
      {
        "name": "Hassendean",
        "description": "The Elliots killed the Laird of Hassendean in 1564.",
        "longitude": -2.722212,
        "latitude": 55.475306
      },
      {
        "name": "Haughton Castle",
        "description": "This castle is said to be haunted by the reiver Archie Armstrong, who starved to death in its dungeon.",
        "longitude": -2.131875,
        "latitude": 55.050597
      },
      {
        "name": "Hawick",
        "description": "8 men (mostly Scotts) were accused of killing John Elliot in the kirkyard here and hanging him from the steeple in 1612. They successfully argued that he had killed himself.",
        "longitude": -2.780914,
        "latitude": 55.42706
      },
      {
        "name": "Hawick - River Teviot",
        "description": "Up to 40 reivers were executed in a mass drowning here, in 1562 (the method chosen because of “a lack of trees and halters’). A further 11 reivers were hanged and 7 drowned here in 1567.",
        "longitude": -2.78773,
        "latitude": 55.424466
      },
      {
        "name": "Haydon Bridge",
        "description": "Sir George Heron ambushed a gang of Scots reivers in 1587, killing 6 of them and taking 16 horses. He was later accused of allowing the raid to happen, so he could take the spoils.",
        "longitude": -2.249734,
        "latitude": 54.975823
      },
      {
        "name": "Headshaw",
        "description": "Thomas Scott of Headshaw killed John Murray of Falahill in 1510.",
        "longitude": -2.85,
        "latitude": 55.5
      },
      {
        "name": "Heavyside",
        "description": "Robert Hall of Heavyside was hanged in 1510 for a long list of reiving offences.",
        "longitude": -2.343907,
        "latitude": 55.479838
      },
      {
        "name": "Hell Beck",
        "description": "Queen Elizabeth's forces killed 300-400 rebels here in 1570.",
        "longitude": -2.734962,
        "latitude": 54.917597
      },
      {
        "name": "Henderland",
        "description": "The Cockburns murdered Roger and Walter Tweedy here in 1498. In 1530, William Cockburn was arrested on numerous charges of theft, slaughter and abetting the English. Legend has it that he was hanged over his own gate and his wife ran to a nearby waterfall so she could not hear his death throes. But it seems he was actually beheaded in Edinburgh and his head placed on the tolbooth there.",
        "longitude": -3.2210261,
        "latitude": 55.4991763
      },
      {
        "name": "Herdmanston Mains",
        "description": "The Sinclairs of Herdmanston slaughtered Walter Murray here in 1565.",
        "longitude": -2.844756,
        "latitude": 55.91948
      },
      {
        "name": "Hermitage Castle",
        "description": "Sir William de Soulis murdered Sir Alexander Armstrong here, in 1320. Legend has it that he was boiled in lead but this is not true (he died a prisoner at Dumbarton Castle). Sir William Douglas killed his former friend, Sir Alexander Ramsay, here in 1338, by starving him to death. The Earl of Bothwell was shot here by John Elliott in 1566 (Elliott was later killed). Bothwell later murdered Lord Darnley so that he could marry Mary Queen of Scots.",
        "longitude": -2.793337,
        "latitude": 55.256044
      },
      {
        "name": "Hermitage Water",
        "description": "A Henderson murdered his kinsman here in 1538 and was hanged.",
        "longitude": -2.78487,
        "latitude": 55.224542
      },
      {
        "name": "Hethersgill",
        "description": "Hethersgill - locals chased off some reivers here in 1584 and killed one.",
        "longitude": -2.817147,
        "latitude": 54.996483
      },
      {
        "name": "Hethpool",
        "description": "Scottish reivers killed a man here in 1596 and left another in peril of death.",
        "longitude": -2.167313,
        "latitude": 55.548513
      },
      {
        "name": "Hexham",
        "description": "",
        "longitude": -2.112144,
        "latitude": 54.972665
      },
      {
        "name": "Houndwood",
        "description": "A gang of 10 men led by Sir Patrick Hepburne of Waughton killed Robert Broun near here in 1615.",
        "longitude": -2.251313,
        "latitude": 55.867359
      },
      {
        "name": "Horsburgh Castle",
        "description": "The Horsburghs murdered men here in 1603 and 1608 (and were sentenced to die). In 1611, they were attacked in Peebles by the Scotts. The Horsburghs were also involved in armed attacks of their own in 1610, 1611, 1615, 1616 (including an attack in Leith) and 1625.",
        "longitude": -3.137067,
        "latitude": 55.640872
      },
      {
        "name": "Humbleton",
        "description": "Thousands of Scots died here in a bloody battle of 1402. In Henry IV, Shakespeare described the carnage as “ten thousand bold Scots, two and twenty knights, balked in their own blood.”",
        "longitude": -2.038563,
        "latitude": 55.550331
      },
      {
        "name": "Hume Castle",
        "description": "A Spanish mercenary was killed here in 1548 during a failed mutiny of the garrison, against the English occupiers. The Humes later killed the garrison in their beds. Two English rebels were executed here in 1570. In 1606, Lord Hume hanged 140 reivers in September alone, having turned to working for the crown.",
        "longitude": -2.470948,
        "latitude": 55.665175
      },
      {
        "name": "Hunthill",
        "description": "John Rutherford of Hunthill murdered Andrew Kerr of Corbet house in 1558, sparking a 2 year feud. In 1597, the English complained that the Rutherfords were harbouring a dozen English outlaws and that together they had murdered and robbed hundreds of people south of the border.",
        "longitude": -2.538307,
        "latitude": 55.462953
      },
      {
        "name": "Inchkeith",
        "description": "English forces landed here in 1522, drowned people and wasted the area.",
        "longitude": -3.135185,
        "latitude": 56.033331
      },
      {
        "name": "Innerwick Castle",
        "description": "English forces slaughtered the entire garrison here, in 1547.",
        "longitude": -2.425511,
        "latitude": 55.955435
      },
      {
        "name": "Jedburgh",
        "description": "The English keeper of Jedburgh was killed in a duel with his Scottish counterpart, in 1394. The Kerrs killed a chaplain here in 1494. King James IV personally oversaw a mass hanging of reivers here in 1510. An actor (stage player) was killed in 1516. Also 10 English soldiers were killed here in 1523 after burning the town.",
        "longitude": -2.554937,
        "latitude": 55.477721
      },
      {
        "name": "Jedforest ",
        "description": "Reivers killed Thomas Henrison here in 1493 and stole 5 ewes.",
        "longitude": -2.54317,
        "latitude": 55.492592
      },
      {
        "name": "Kale Water",
        "description": "A gang of Kerrs murdered a man here in 1493, robbing him of his horse, saddle, satchel, bow and purse.",
        "longitude": -2.4106482,
        "latitude": 55.5255323
      },
      {
        "name": "Kelso",
        "description": "The Olivers murdered 2 men here 1502. Peter Nairne was charged with inducing several Englishmen to cross the border, with the aim of killing them in 1601.",
        "longitude": -2.432207,
        "latitude": 55.600029
      },
      {
        "name": "Kelso Abbey",
        "description": "Kelso Abbey - in 1545, the English forces (aided by Spanish mercenaries) destroyed the abbey and killed everybody within it. The abbot was slain by his relation (Kerr of Cessford) in 1566.",
        "longitude": -2.43253,
        "latitude": 55.597225
      },
      {
        "name": "Kershope",
        "description": "The Olivers killed 2 men here in 1502.",
        "longitude": -2.760398,
        "latitude": 55.154742
      },
      {
        "name": "Kershopefoot",
        "description": "Three men (Lilburn, Starhead and “the bastard” Heron) killed the Scottish warden Robert Kerr here at a truce day in 1508. Kerr’s confederates tracked down Lilburn to York and brought his head back to Scotland in a sack.",
        "longitude": -2.818873,
        "latitude": 55.137246
      },
      {
        "name": "Kilham",
        "description": "The Kerrs killed Thomas Storey killed here in 1596 (after the Storeys had killed one of their shepherds). Scottish reivers killed another man here in 1597.",
        "longitude": -2.18483,
        "latitude": 55.585692
      },
      {
        "name": "Kirkbride",
        "description": "James Douglas of Drumlanrig killed the rector of Kirkbride, in 1543.",
        "longitude": -3.203152,
        "latitude": 54.896994
      },
      {
        "name": "Kirkharle",
        "description": "The reiver Robert Loraine was ambushed on his way back from church in 1483, and his body cut into pieces “small as flesh for the pot” and stuffed into his saddlebags. Then his horse was sent home, as a message to his family. A statue marks the spot of his murder.",
        "longitude": -1.977808,
        "latitude": 55.136642
      },
      {
        "name": "Kirk Yetholm",
        "description": "English forces killed some men here in 1544.",
        "longitude": -2.276483,
        "latitude": 55.54722
      },
      {
        "name": "Lag Tower",
        "description": "The Jonstones raided this place in 1585, during a spree which cost 18 lives.",
        "longitude": -3.758899,
        "latitude": 55.157251
      },
      {
        "name": "Lamington",
        "description": "The Douglases killed 1 man and maimed 6 in 1588.",
        "longitude": -3.619155,
        "latitude": 55.566499
      },
      {
        "name": "Lanehead",
        "description": "The notorious thief Jemmy Dodd of Burnmouth and five accomplices were caught reiving in England and all six hanged in Newcastle in 1523 (two others escaped after a party of 80 reivers intervened).",
        "longitude": -2.327363,
        "latitude": 55.16412
      },
      {
        "name": "Langholm",
        "description": "The authorities killed 30 Armstrongs here in 1524 and another 32 in 1532.",
        "longitude": -2.998913,
        "latitude": 55.153062
      },
      {
        "name": "Langton",
        "description": "Robert Dougal and Thomas Broune of Langton were both beheaded in 1493, for the slaughter of Thomas Aitchison. The Cockburns of Langton helped kill the French diplomat Antoine De la Bastie in 1517.",
        "longitude": -2.3731,
        "latitude": 55.762672
      },
      {
        "name": "Lauder",
        "description": "William Lauder of Lauder was beheaded in 1549 for assisting the English in 1547. A prisoner was lynched and killed here, by the Humes and Cranstouns, in 1598.",
        "longitude": -2.756614,
        "latitude": 55.722936
      },
      {
        "name": "Leaplish",
        "description": "Reivers shot 3 women here in 1611, killing one of them.",
        "longitude": -1.507883,
        "latitude": 54.884644
      },
      {
        "name": "Leith",
        "description": "Over 1,000 people were killed in fighting in 1560, during the siege of Leith.",
        "longitude": -3.16653,
        "latitude": 55.975464
      },
      {
        "name": "Learmouth",
        "description": "Scottish forces killed a woman here in 1523.",
        "longitude": -2.239673,
        "latitude": 55.633061
      },
      {
        "name": "Lessudden",
        "description": "English forces killed several men here in 1544.",
        "longitude": -2.640058,
        "latitude": 55.573423
      },
      {
        "name": "Levens Bridge",
        "description": "Ritchie Graham murdered George Graham here in 1502.",
        "longitude": -2.775092,
        "latitude": 54.260226
      },
      {
        "name": "Liddel Strength",
        "description": "Scottish forces killed the Royal Constable, Walter Selby, here in 1346, after forcing him to watch his two sons being strangled. Over 40 Englishmen were also killed.",
        "longitude": -2.937899,
        "latitude": 55.058438
      },
      {
        "name": "Liddisdale",
        "description": "The Earl of Angus killed over 30 reivers here in 1527. The local reivers killed 11 English pursuers in 1528. Scotts killed 7 Elliots and Croziers here in 1564. In 1596, the people of Liddesdale were accused of murdering 50 English people “in recent years.” That year, Lord Scrope’s English forces killed 2 men and up to 10 infants.",
        "longitude": -2.75,
        "latitude": 55.2
      },
      {
        "name": "Lincluden",
        "description": "William Douglas of Lincluden was a notorious reiver who was found guilty of a long list of raids and murders in 1610. He was sentenced to have his right hand cut off, then to be hanged, but this was later commuted to banishment from Scotland. He crept back in 1612.",
        "longitude": -3.632222,
        "latitude": 55.084725
      },
      {
        "name": "Lintalee",
        "description": "John Henrison was murdered here in 1493, as reivers stole 6 ewes.",
        "longitude": -2.557889,
        "latitude": 55.453423
      },
      {
        "name": "Linton",
        "description": "George Kerr of Linton and 13 others killed 2 reivers named Hall, who had raided them months earlier in 1537. A mass grave, with more than 50 skulls, was found here in 1792.",
        "longitude": -2.358118,
        "latitude": 55.528559
      },
      {
        "name": "Lochmaben",
        "description": "The Johnsones killed Captain Oliphant and various others who had been sent to capture them here in 1585, before setting fire to the parish church. The Maxwells attacked the Johnstones here in 1585. The Armstrongs murdered Sir John Carmichael here in 1600.",
        "longitude": -3.441824,
        "latitude": 55.129134
      },
      {
        "name": "Lochrutton",
        "description": "The Laird of Auchenfranko was killed here in 1543.",
        "longitude": -3.763834,
        "latitude": 55.023615
      },
      {
        "name": "Lochwood Castle",
        "description": "The Armstrongs killed 8 people here in 1545. The Maxwells killed 6 men here in 1585.",
        "longitude": -3.441811,
        "latitude": 55.256822
      },
      {
        "name": "Lockerbie",
        "description": "One of the Earl of Morton’s men was killed here in 1585 and 4 Johnstones were hanged from the walls. Scores of Maxwells were slaughtered in the streets here by the Johnstones, giving rise to the expression a “Lockerbie lick”, for a gash across the face.",
        "longitude": -3.355358,
        "latitude": 55.121821
      },
      {
        "name": "Macbiehill",
        "description": "John Hamilton was murdered here in 1591.",
        "longitude": -3.302828,
        "latitude": 55.753895
      },
      {
        "name": "Makerstoun",
        "description": "Thomas Macdowell of Makerston and 13 others killed 2 reivers named Hall, who had raided them months earlier in 1537.",
        "longitude": -2.524685,
        "latitude": 55.586753
      },
      {
        "name": "Mangerton Tower",
        "description": "Hector Armstrong killed Barty Young for leading the English to the castle in 1543.",
        "longitude": -2.818014,
        "latitude": 55.159629
      },
      {
        "name": "Manslaughter Law",
        "description": "There was a bloody fight near here in 1402, between the Earl of Dunbar and the Hepburns. The site is now called Manslaughter Law.",
        "longitude": -2.561272,
        "latitude": 55.875114
      },
      {
        "name": "Maxton",
        "description": "The Olivers killed John Moffat here in 1502. John Faulo killed and robbed David Henrison here in 1502.",
        "longitude": -2.614466,
        "latitude": 55.5639
      },
      {
        "name": "Mellerstain",
        "description": "The Humes killed Alexander Hailie of Mellerstain in 1569. Another Laird of Mellerstain was murdered by the Humes in 1603, as a result of a long-running feud.",
        "longitude": -2.550116,
        "latitude": 55.6512
      },
      {
        "name": "Melrose",
        "description": "Scottish forces killed or captured about 80 members of the Berwick garrison near here, in 1316. English forces killed 4 monks here in 1322, including the prior. The Humes tried to murder the abbot in 1537.",
        "longitude": -2.72191,
        "latitude": 55.598676
      },
      {
        "name": "Melrose Skirmish Hill",
        "description": "Nearly 200 Scotts, Douglases and Kerrs were killed at Skirmish Hill in 1526, sparking a decades-long feud. Some were hanged including James Elwald.",
        "longitude": -2.745178,
        "latitude": 55.597002
      },
      {
        "name": "Merse",
        "description": "English forces killed about 400 Scots in this area, in 1544.",
        "longitude": -2.411,
        "latitude": 55.776
      },
      {
        "name": "Middleton Hall",
        "description": "The Rutherfords killed a man here in 1596.",
        "longitude": -2.020247,
        "latitude": 55.523036
      },
      {
        "name": "Milfield",
        "description": "Up to 600 Scots and 60 English were killed here in 1513, when a huge raiding party led by Lord Hume was ambushed by Sir William Bulmer.",
        "longitude": -2.095835,
        "latitude": 55.591297
      },
      {
        "name": "Mindrum",
        "description": "Nicholas Bolton of Mindrum was slain at his own plough by the Kerrs in 1596.",
        "longitude": -2.25313,
        "latitude": 55.588699
      },
      {
        "name": "Minto",
        "description": "William and Archibald Turnbull of Minto murdered John Rutherford in 1499. Andrew Turnbull killed a man in 1580 but was spared hanging as he was of a young age.",
        "longitude": -2.685969,
        "latitude": 55.477061
      },
      {
        "name": "Moffat",
        "description": "The Jardines killed a man and his daughter near here, in 1584. They killed 2 more people and were sent to Edinburgh Castle, only to escape.",
        "longitude": -3.440337,
        "latitude": 55.335208
      },
      {
        "name": "Morton Castle",
        "description": "The Earl of Morton was executed in 1580, for his part in the murder of Lord Darnley.",
        "longitude": -3.747558,
        "latitude": 55.274477
      },
      {
        "name": "Moss Tower",
        "description": "English forces killed 34 men here in 1545.",
        "longitude": -2.454557,
        "latitude": 55.530968
      },
      {
        "name": "Mouswald",
        "description": "Reivers killed the Laird of Mouswald in 1504. Lord Herries killed a later laird in 1548.",
        "longitude": -3.463783,
        "latitude": 55.039659
      },
      {
        "name": "Mungo's Walls",
        "description": "Andrew Blackadder of Mungo’s Walls murdered John and Phillip Nesbitt in 1499.",
        "longitude": -2.319499,
        "latitude": 55.768611
      },
      {
        "name": "Naworth Castle",
        "description": "The castle contains an oak tree, from which Lord Howard is said to have hanged 63 Armstrongs in 2 years.",
        "longitude": -2.687978,
        "latitude": 54.955506
      },
      {
        "name": "Neidpath Castle",
        "description": "The Tweedys killed a member of the Veitch clan here, in 1590, during their bloody feud. A duel was fought here in 1592, with a man nearly killed.",
        "longitude": -3.215337,
        "latitude": 55.651864
      },
      {
        "name": "Newbattle",
        "description": "George Broune of Cockpen was hanged here in 1610, for stealing horses from Newbattle park.",
        "longitude": -3.07421,
        "latitude": 55.879874
      },
      {
        "name": "Newbie",
        "description": "Reivers killed a man and a 2-year-old infant here in 1508. The culprits were drawn and hanged. Many dead bodies and swords were also discovered here - probably from the Battle of Annan.",
        "longitude": -3.280606,
        "latitude": 54.974298
      },
      {
        "name": "Newbiggin",
        "description": "Peter Hall committed several murders and thefts here in 1493.",
        "longitude": -2.82165,
        "latitude": 54.653895
      },
      {
        "name": "Newcastle upon Tyne",
        "description": "16 Scots were executed here in 1306. 6 reivers including Jemmy Dodd of Burnmouth were hanged here in 1523. Sir William Lisle, John Ogle, William Shaftoe and Thomas Fenwick (“all bandits”) killed their gaolers and escaped from prison here in 1527. They then went on a year-long crime spree before being recaptured and eexecuted in 1528. 10 Grahams were executed here 1605. . A further 17 reivers were executed that year (4 of them Scots).",
        "longitude": -1.61778,
        "latitude": 54.978252
      },
      {
        "name": "Newlands",
        "description": "Charles Lowry killed Walter Newlands of Newlands in 1526.",
        "longitude": -1.862599,
        "latitude": 54.897169
      },
      {
        "name": "Niddrie",
        "description": "The Earl of Bothwell killed 50 of the king’s men here in 1592.",
        "longitude": -3.125857,
        "latitude": 55.934924
      },
      {
        "name": "Nisbet",
        "description": "There were 2 battles on this site. In 1355, Scottish forces beat the English. A French knight bought the prisoners and killed them all, in revenge for the death of his father. The local landmark “Slaughter hill” marks the spot. In 1402, English forces defeated the Scots. The Scottish leader Sir Patrick Hepburn was among the dead.",
        "longitude": -2.332357,
        "latitude": 55.753664
      },
      {
        "name": "Nithsdale",
        "description": "The Johnstones killed 18 people in this area in 1595.",
        "longitude": -3.733333,
        "latitude": 55.133333
      },
      {
        "name": "Norham Castle",
        "description": "The captain of Norham Castle was killed at the battle of Ancrum Moor in 1545.",
        "longitude": -2.150602,
        "latitude": 55.721764
      },
      {
        "name": "North Berwick",
        "description": "John Matheson was beheaded in 1537 for various murders in the town and siding with the traitor Douglases. The prioress of North Berwick was involved in a violent dispute with Alexander Oliphant in 1550.",
        "longitude": -2.719646,
        "latitude": 56.058363
      },
      {
        "name": "Old Woodhouselee",
        "description": "This tower was owned by James Hamilton, who holds the dubious honour of being the first person in world history to assassinate somebody (Regent Morton, in 1570) with a firearm.",
        "longitude": -3.18748,
        "latitude": 55.841582
      },
      {
        "name": "Ormiston (Roxburghshire)",
        "description": "James and Hob Ormeston were among the murderers of Darnley in 1567 and were executed in 1573 in Edinburgh. While awaiting execution James also confessed to the murder of Michael Hunter and hanging another man “in a rage” plus “mony other wickit deids”. The Kerrs of Ormeston also tried to kill some of Robert Carey’s men at Norham in 1596.",
        "longitude": -2.481167,
        "latitude": 55.529844
      },
      {
        "name": "Otterburn",
        "description": "About 2,000 Scots and English were killed here in 1388. Scottish reivers also killed a man here in 1582.",
        "longitude": -2.176524,
        "latitude": 55.231059
      },
      {
        "name": "Ovingham",
        "description": "The Abbot of Hexham was hanged here after defying orders to dissolve the abbey in 1535.",
        "longitude": -1.869759,
        "latitude": 54.967524
      },
      {
        "name": "Pawston",
        "description": "Reivers killed John Selby here in 1596, as he tried to protect his cattle.",
        "longitude": -2.233575,
        "latitude": 55.588588
      },
      {
        "name": "Peebles",
        "description": "Many families took part in deadly feuds here. The Bruces and Comyns fought each other in 1299. George Dickson murdered Simon Dickson in 1502. George Tweedy killed William Young in 1510. Dutho Stewart was beheaded for murdering Thomas Forester in 1550. The Tweedies killed John Dickson in 1572 and Patrick Veitch in 1590, prompting the Veitches to kill John Tweedy in Edinburgh. In 1603, the Horsburghs murdered a man and were sentenced to die.",
        "longitude": -3.193642,
        "latitude": 55.653071
      },
      {
        "name": "Pinkie Cleugh",
        "description": "Thousands of Scots were killed here in 1547, with only 250 English losses.",
        "longitude": -3.021105,
        "latitude": 55.930365
      },
      {
        "name": "Piperdean",
        "description": "Around 1,700 Scots and English were killed here, at the Battle of Piperdean 1435.",
        "longitude": -2.320564,
        "latitude": 55.920457
      },
      {
        "name": "Plora",
        "description": "The Turnbulls killed a woman and her 2 sons here in 1494.",
        "longitude": -3.040709,
        "latitude": 55.611912
      },
      {
        "name": "Polmood",
        "description": "A gang of Tweedys killed Edward Hunter here in 1502.",
        "longitude": -3.411052,
        "latitude": 55.531761
      },
      {
        "name": "Polwarth",
        "description": "A man was murdered here on Packman Brae, date unknown.",
        "longitude": -2.408219,
        "latitude": 55.746601
      },
      {
        "name": "Prenderguest",
        "description": "Alexander Home of Prenderguest murdered George Home of Spott in 1591, as part of a family feud.",
        "longitude": -2.130812,
        "latitude": 55.830288
      },
      {
        "name": "Prestonpans",
        "description": "\"Wanton Will” Jamesoun killed John Forbes with a stone in 1538 (and was then beheaded).",
        "longitude": -2.984467,
        "latitude": 55.959538
      },
      {
        "name": "Preston Tower",
        "description": "Preston Tower was built by Sir Robert Harbottle (who had murdered a man in Methley, Yorkshire in 1392).",
        "longitude": -2.106331,
        "latitude": 55.336814
      },
      {
        "name": "Prickenhaugh Tower",
        "description": "The notorious Gibb Elliot was killed here by a gang of men from Tynedale in 1597, after he had killed one of their men.",
        "longitude": -2.723793,
        "latitude": 55.252844
      },
      {
        "name": "Primside Farm",
        "description": "Ralph Kerr of Primsideloch killed a man here in 1509.",
        "longitude": -2.310938,
        "latitude": 55.528141
      },
      {
        "name": "Redesdale",
        "description": "the Rutherfords cut off Hugh Carlisle’s hand here in 1595. Locals killed 2 Scots here in 1598, as they were stealing timber and hunting illegally.",
        "longitude": -2.186172,
        "latitude": 55.229471
      },
      {
        "name": "Redeswire",
        "description": "25 Englishmen and 2 Scots were killed here after a supposed truce day in 1575. Scottish reivers killed a man here in 1587.",
        "longitude": -2.477854,
        "latitude": 55.354318
      },
      {
        "name": "Restalrig",
        "description": "25 men were killed in factional fighting here in 1559.  Another 100+ (mostly French) were killed here in 1560. Two men also attacked and killed John Borthwick in his home here in 1563. Both were beheaded in Edinburgh.",
        "longitude": -3.154096,
        "latitude": 55.961624
      },
      {
        "name": "Reston",
        "description": "George Craw of Reston was involved in the killing of Lord Methven in 1572, by a cannon shot from Edinburgh Castle.",
        "longitude": -2.191938,
        "latitude": 55.851657
      },
      {
        "name": "Richmond",
        "description": "The recorder of Berwick-upon-Tweed was almost assassinated here in 1597.",
        "longitude": -1.732618,
        "latitude": 54.403465
      },
      {
        "name": "Riskenhope",
        "description": "The Tweedies killed many reivers here in 1587.",
        "longitude": -3.209902,
        "latitude": 55.458175
      },
      {
        "name": "River Tweed",
        "description": "The Kerrs drowned a prisoner here in 1596 and hanged the other.",
        "longitude": -2.198625,
        "latitude": 55.688124
      },
      {
        "name": "Rookhope",
        "description": "Locals killed several reivers here in 1572,  as they tried to raid the area.",
        "longitude": -2.095827,
        "latitude": 54.780052
      },
      {
        "name": "Rose Castle",
        "description": "There was a plot to kill Lord Scrope here in 1598.",
        "longitude": -2.980143,
        "latitude": 54.806496
      },
      {
        "name": "Rothbury Forest",
        "description": "Reivers from Redesdale killed 7 men here in 1518, as they ambushed the bailiff taking their comrades to Morpeth prison.",
        "longitude": -1.833333,
        "latitude": 55.316667
      },
      {
        "name": "Rowanburn",
        "description": "Lang Sandie Armstrong of Rowanburn and his sons were hanged here in 1605, for the murder of Sir John Carmichael. A statue marks the spot.",
        "longitude": -2.92637,
        "latitude": 55.086683
      },
      {
        "name": "Roxburgh",
        "description": "Richard Jack was beheaded for murder of Thomas Dun here in 1502.",
        "longitude": -2.45596,
        "latitude": 55.597351
      },
      {
        "name": "Roxburgh Castle",
        "description": "King James II of Scotland was killed here in 1460, when one of his own cannons exploded. The Scots stormed the castle and killed everyone within it.",
        "longitude": -2.455209,
        "latitude": 55.597358
      },
      {
        "name": "Rule Water",
        "description": "King James IV raided this place in 1510, taking reivers to be hanged at Jedburgh.",
        "longitude": -2.648858,
        "latitude": 55.482404
      },
      {
        "name": "Rutherford",
        "description": "the Turnbulls killed John of Rutherford here in 1499. 3 Rutherford men killed Sir David Forbes in 1558.",
        "longitude": -2.563407,
        "latitude": 55.565701
      },
      {
        "name": "Saltoun",
        "description": "Peter Downe was found guilty of a huge list of crimes (including slaughter, theft, burning and concealment) from 1554 to 1550 and was sentenced to death.",
        "longitude": -2.864595,
        "latitude": 55.897569
      },
      {
        "name": "Saltoun Castle",
        "description": "Five Scottish traitors were hanged in 1548, after the siege of the castle.",
        "longitude": -2.864244,
        "latitude": 55.906103
      },
      {
        "name": "Sark",
        "description": "Around 2,000 Scots and English were killed in battle here, in 1448.",
        "longitude": -3.07606,
        "latitude": 54.983685
      },
      {
        "name": "Scaleby",
        "description": "Scottish reivers mutilated a man here in 1592 and killed one in 1600, leaving another in peril of his life. A Scot was attacked in revenge.",
        "longitude": -2.863101,
        "latitude": 54.959563
      },
      {
        "name": "Selkirk",
        "description": "William Clerk killed 4 men here around 1494. Some Armstrongs murdered John Blackburn in 1501. The Kerrs murdered John Ford in 1502 and then the Provost and Bailie in 1541.",
        "longitude": -2.838524,
        "latitude": 55.550658
      },
      {
        "name": "Shieldgreen",
        "description": "The Horsburghs attacked one of the Hays with pistols here in 1611.",
        "longitude": -3.157109,
        "latitude": 55.675538
      },
      {
        "name": "Shillmoor",
        "description": "In 1597, locals complained that Sir John Foster beheaded a man here “for a small offence” while turning a blind eye to Scottish reivers.",
        "longitude": -2.195838,
        "latitude": 55.367198
      },
      {
        "name": "Shitlington",
        "description": "William Charlton of Shitlington and 2 accomplices were killed near here by pursuers from a raid in 1528. They had kidnapped the parson of Muggleswick.",
        "longitude": -2.259707,
        "latitude": 55.120155
      },
      {
        "name": "Softlaw ",
        "description": "Will “Woddir-nek” Elliot, Peter “Monk” Trumbill and Henry Blake of Softlaw were all hanged for theft in the 1560s. 2 men were dismembered here in 1611.",
        "longitude": -2.397244,
        "latitude": 55.574258
      },
      {
        "name": "Solway Moss",
        "description": "Hundreds of Scots were killed here in 1542, but mostly drowning while escaping through the river, rather than on the battlefield itself.",
        "longitude": -2.979868,
        "latitude": 55.004919
      },
      {
        "name": "South Charlton",
        "description": "Reivers killed a man here in 1596.",
        "longitude": -1.744653,
        "latitude": 55.47627
      },
      {
        "name": "Sowerby",
        "description": "The authorities killed a man here in 1297 for refusing to fight the Scots.",
        "longitude": -2.967016,
        "latitude": 54.737942
      },
      {
        "name": "Spedlins Castle",
        "description": "Legend has it that a prisoner died here, after the owners went to Edinburgh and forgot about him.",
        "longitude": -3.418235,
        "latitude": 55.173978
      },
      {
        "name": "Spittal on Rule",
        "description": "King James IV executed about 20 Turnbulls here (and a further 180 surrendered).",
        "longitude": -2.652115,
        "latitude": 55.470416
      },
      {
        "name": "Spott",
        "description": "George Hume of Spot was accused of being one of the murderers of Lord Darnley in 1567. George Home of Spott was murdered in a field here, by his relative Alexander Home of Prenderguest in 1591. In 1597, Alexander was still a fugitive in England, along with 2 accomplices named Douglas.",
        "longitude": -2.526071,
        "latitude": 55.971919
      },
      {
        "name": "Spott Burn",
        "description": "English forces defeated the Scots here in 1296, killing Sir Patrick Graham among many others.",
        "longitude": -2.518297,
        "latitude": 55.975899
      },
      {
        "name": "Sprouston",
        "description": "Robert Paterson was hanged for burning corn here in 1554.",
        "longitude": -2.384126,
        "latitude": 55.611229
      },
      {
        "name": "Spylaw ",
        "description": "The English accused Sir John Kerr of Spylaw of “execrable murders” in 1597.",
        "longitude": -2.434839,
        "latitude": 55.590611
      },
      {
        "name": "Stanton",
        "description": "William Clavering was shot dead (and his brother Sir Cuthbert Collingwood wounded) in an ambush by the Selbys here in 1586.",
        "longitude": -1.792033,
        "latitude": 55.206867
      },
      {
        "name": "Staplegordon Burn",
        "description": "King James V executed John Armstrong of Staplegordon during his great raid against the reivers in 1530.",
        "longitude": -3.007811,
        "latitude": 55.193937
      },
      {
        "name": "St Mary's of the Lowes",
        "description": "200 Scotts broke down the kirk’s door, trying to kill Sir Peter Cranstoune in 1557.",
        "longitude": -3.166913,
        "latitude": 55.506806
      },
      {
        "name": "Stobo",
        "description": "A gang of Tweedies cut a man's fingers off here and stabbed another man here in 1610. They also battered a man named Murray here in 1619 and left him for dead, but he recovered and escaped to Edinburgh to raise the alarm.",
        "longitude": -3.297946,
        "latitude": 55.626739
      },
      {
        "name": "Stonypath",
        "description": "In 1561, Robert Douglas of Stonypath raided the house of Henry Carfra in Ridinghill, wounding him and killing his infant son. In 1568, Carfra and 6 friends got revenge by ambushing Douglas and leaving him for dead.",
        "longitude": -3.362598,
        "latitude": 55.756415
      },
      {
        "name": "Stow",
        "description": "The Abbot of Melrose was excommunicated for attacking the Archbishop's Palace here in 1268 and killing a man. Jock Allane killed George Kay in 1569 and was subsequently beheaded.",
        "longitude": -2.857355,
        "latitude": 55.692133
      },
      {
        "name": "Swinton",
        "description": "Many Scots were killed here in a 1558 skirmish.",
        "longitude": -2.262352,
        "latitude": 55.720662
      },
      {
        "name": "Synton",
        "description": "Davy “the Lady” Scott killed 2 men here in 1502, on a raid with the Armstrongs. Andrew Crossar of Synton was drawn and hanged for committing 4 murders, stealing horses, burning and “bringing in Englishmen and traitors” in 1509.",
        "longitude": -2.82972,
        "latitude": 55.492406
      },
      {
        "name": "Tantallon Castle",
        "description": "Douglas supporters killed 2 men here after the 1528 siege. Crown forces hanged 2 men in revenge in 1529.",
        "longitude": -2.650619,
        "latitude": 56.056359
      },
      {
        "name": "Tarset",
        "description": "Scottish reivers killed 10 men here, in a raid at Michaelmas 1584.",
        "longitude": -2.387141,
        "latitude": 55.224719
      },
      {
        "name": "Tarset Burn",
        "description": "The Armstrongs killed 6 people here in 1582.",
        "longitude": -2.35921,
        "latitude": 55.199103
      },
      {
        "name": "Teviotdale",
        "description": "The Earl of Angus conducted a raid here in 1527, killing 18 reivers and hanging another 14 from a nearby bridge. The Elliots murdered a number of people here in 1564.",
        "longitude": -2.783333,
        "latitude": 55.466667
      },
      {
        "name": "Thirlestane Castle",
        "description": "The Douglases seized Robert Cochrane, James Homyll and other favourites of King James III and hanged them from the bridge here in 1482. Walter Scott violently occupied this place 1502. In the mid-1500s, 3 members of the Lauder family were killed here in a feud.",
        "longitude": -2.743447,
        "latitude": 55.722255
      },
      {
        "name": "Thorneydykes",
        "description": "The Frenche brothers shot and wounded two Home brothers near here in 1609. In 1613, Alexander Frenche was beheaded for the murder of John Crawford of Corsbie.",
        "longitude": -2.618016,
        "latitude": 55.729095
      },
      {
        "name": "Thornton",
        "description": "Reivers killed 3 men and maimed 6 men and women in 1589.",
        "longitude": -2.07711,
        "latitude": 55.722751
      },
      {
        "name": "Thornton Castle",
        "description": "English forces killed 10 men here in 1547.",
        "longitude": -2.422893,
        "latitude": 55.955231
      },
      {
        "name": "Threave Castle",
        "description": "The Douglases murdered Patrick Maclellan here in 1452.",
        "longitude": -3.969511,
        "latitude": 54.939183
      },
      {
        "name": "Tinnis Castle",
        "description": "The Pringles killed James Stewart of Tinnis in 1618, creating a feud.",
        "longitude": -3.366099,
        "latitude": 55.595758
      },
      {
        "name": "Tinwald",
        "description": "Lord Maxwell murdered Sir James Johnstone here in 1608, at a supposed reconciliation.",
        "longitude": -3.562677,
        "latitude": 55.117589
      },
      {
        "name": "Troughend",
        "description": "The Crosiers killed several of Reed’s men here in 1589. When he complained, they murdered him, with the help of the Halls.",
        "longitude": -2.211135,
        "latitude": 55.225668
      },
      {
        "name": "Tudhoe",
        "description": "500 Scots were slaughtered here, in 1346, before Nevilles Cross. As a result, the road became known as Butcher’s Race.",
        "longitude": -1.586976,
        "latitude": 54.713593
      },
      {
        "name": "Tushie Law",
        "description": "Adam Scott of Tushie Law was listed for multiple thefts, slaughters and burnings in 1502. He and 5 others killed William Dalziel in 1512. The \"King of thieves\" was later found guilty of multiple offences including blackmail and was beheaded in Edinburgh in 1530. In 1612, Walter Scott of Tushielaw was murdered by the Tweedies.",
        "longitude": -3.116667,
        "latitude": 55.45
      },
      {
        "name": "Twizel",
        "description": "The Kerrs came looking for Storeys to kill here, in 1595.",
        "longitude": -2.18466,
        "latitude": 55.684396
      },
      {
        "name": "Tynedale",
        "description": "Scottish reivers killed \"dyvers\" men here in 1525. English forces claimed to have killed as many as 120 reivers in 120. The Armstrongs killed 6 people and injured 11 in 1583. They killed another 10  men in 1584. In 1593, the Elliots killed 2 men in a feud here. Reivers killed another man in 1593, another 4 in 1595, 1 in 1596, 1 in 1597 and 2 more in 1598.",
        "longitude": -2.2891,
        "latitude": 55.153529
      },
      {
        "name": "Tynemouth",
        "description": "Two jewel thieves (who had stolen from the Queen of Scotland) were caught here in 1594, before being sent to Edinburgh to be executed. A Scotsman was also stopped here in 1597, as he was on a mission to blow up Sir Robert Kerr.",
        "longitude": -1.425582,
        "latitude": 55.017587
      },
      {
        "name": "Ulgham",
        "description": "Henry de Ellington was stabbed to death in a game of football in 1280.",
        "longitude": -1.632965,
        "latitude": 55.225289
      },
      {
        "name": "Wamphray",
        "description": "Willie Johnstone of Wamphray (AKA The Galliard) was killed in the 1590s and the resulting feud with the Crichtons resulted in \"considerable slaughter\".",
        "longitude": -3.399397,
        "latitude": 55.241988
      },
      {
        "name": "Wampool",
        "description": "The Grahams killed men in a raid here in 1600.",
        "longitude": -3.187117,
        "latitude": 54.880752
      },
      {
        "name": "Wark",
        "description": "English forces from Wark garrison killed more than 50 Scots in 1524. As many as 300 French soldiers were killed here, in 1523, while besieging the castle (their Scottish allies having refused to cross the river). In 1595, the Kerrs came looking for Storeys to kill.",
        "longitude": -2.280575,
        "latitude": 55.640237
      },
      {
        "name": "Wauchope",
        "description": "The Turnbulls of Wauchope admitted many crimes including slaughter and burning in 1502 and were denounced as rebels in 1529. John Lindsay of Wauchope was convicted of killing a messenger at arms and treason in 1505.",
        "longitude": -2.65515,
        "latitude": 55.376584
      },
      {
        "name": "Waughton Castle",
        "description": "Sir Patrick Hepburn of Waughton was accused of many violent crimes in the 1530s. A later Sir Patrick killed a man near Coldingham in 1615, but escaped by shaking hands with the man’s master.",
        "longitude": -2.696189,
        "latitude": 56.018907
      },
      {
        "name": "Wedderburn Castle",
        "description": "George Home of Wedderburn was killed raiding the English in 1497. His son David Home was found guilty of reiving (with 100 others) at Edinburgh that same year. In 1502 he was granted remission for the slaughter of John Lowdoune. In 1517, he was one of the main movers behind the murder of French diplomat Antoine de la Bastie. David himself was killed in an encounter with the English in 1524, then his son was killed at Pinkie. His son died in his bed in 1574 – said to be a first for the family.",
        "longitude": -2.307191,
        "latitude": 55.768611
      },
      {
        "name": "Weldon",
        "description": "Nicholas Weldon of Weldon was listed as a notorious thief and murderer in 1597. Part of a criminal family (his uncle was executed for his crimes), he rode with the Fenwicks.",
        "longitude": -1.775378,
        "latitude": 55.286167
      },
      {
        "name": "Whitchester",
        "description": "Robert Scott killed Adam Crawford here in 1494. The Scotts of Whitchester also feuded with other Scotts, with Scott of Allanhaugh and Whitchester assaulting Scott of Buccleuch's wife with a long staff in 1541.",
        "longitude": -2.823229,
        "latitude": 55.413026
      },
      {
        "name": "Whitmuir Hall",
        "description": "Two Whitmuir men killed a man here in 1502. And in 1509, William Kerr of Whitmuir murdered a man called John Broune.",
        "longitude": -2.789305,
        "latitude": 55.535842
      },
      {
        "name": "Whitslaid",
        "description": "The Lauders of Whitslaid killed George Wedderat in 1565, as part of an old feud.",
        "longitude": -2.698358,
        "latitude": 55.685164
      },
      {
        "name": "Widdrington",
        "description": "The Lisles came to murder Sir William Ellerker in 1527.",
        "longitude": -1.599918,
        "latitude": 55.256549
      },
      {
        "name": "Wideopen",
        "description": "A Dagliesh was “cut all in pieces” by Carey’s men in 1596 in revenge for stealing 2 of his horses. The barbarity of this reached Queen Elizabeth herself, who said the act was “verie barabarous and seldom used among the Turckes”. Carey got into a series of letters where he vehemently denied that the body was cut in as many pieces as reported.",
        "longitude": -2.384248,
        "latitude": 55.437888
      },
      {
        "name": "Wigtown",
        "description": "Thomas McLellan and 4 other men were declared outlaws for murdering George Frere in 1509. In 1509, the Sheriff of Wigtown Patrick Agnew was convicted of taking bribes to acquit murderers. In 1512 and 1513, he was found guilty of many other violent offences including the murder of Patrick McKee. Another man – Patrick Mclellan - was beheaded for stealing 20 oxen from Agnew in 1510. Thomas Mure was found guilty of many violent offences here in 1512. Thomas Porter was beheaded here in 1513 for the cruel slaughter of John Makmyane. Many violent offences (mutilations, thefts and oppressions) were reported in Wigtown that year. The Provost of Wigtown was murdered in 1610.",
        "longitude": -4.444234,
        "latitude": 54.867159
      },
      {
        "name": "Willimoteswick Castle",
        "description": "Scottish reivers killed William Ridley of Willimoteswick and 2 others in 1598.",
        "longitude": -2.359752,
        "latitude": 54.96703
      },
      {
        "name": "Windy Gyle",
        "description": "The Kerrs killed Lord Francis Russell here in 1585, at a supposed Truce Day.",
        "longitude": -2.216667,
        "latitude": 55.416667
      },
      {
        "name": "Wingates",
        "description": "The Elliots once killed a man here and maimed others.",
        "longitude": -1.84843,
        "latitude": 55.251669
      },
      {
        "name": "Woodside",
        "description": "The Scotts killed a man here in 1587.",
        "longitude": -1.717618,
        "latitude": 55.13605
      },
      {
        "name": "Wooler",
        "description": "The Kerrs killed 3 Storeys here, in 1595. The locals rode into Scotland and killed a shepherd of the Kerrs as a revenge, prolonging the feud.",
        "longitude": -2.012239,
        "latitude": 55.54684
      },
      {
        "name": "Yarrow Kirk",
        "description": "John Scott killed his brother-in-law Robert Scott in a duel here (year unknown but early 1500s).",
        "longitude": -3.021879,
        "latitude": 55.540181
      },
      {
        "name": "Yeavering",
        "description": "English forces killed 60 Scots here in 1415",
        "longitude": -2.102581,
        "latitude": 55.56751
      },
      {
        "name": "York",
        "description": "The Earl of Nottingham killed the Earl of Dunbar in a duel here, in 1390. He had been issued a safe-conduct to visit England, specifically for this purpose. The Taits tracked down one of the killers of Robert Kerr and decapitated him in 1508. They brought the head back to Scotland in a bag.",
        "longitude": -1.073911,
        "latitude": 53.96142
      }
    ]
  },
  {
    "category": "Burnings, robberies and other raids",
    "image": "https://static.wixstatic.com/media/c62682_0eea70502a434433af931a46d6a19dab~mv2.png",
    "locations": [
      {
        "name": "Abbey Saint Bathans",
        "description": "English forces burnt the priory here, in 1543. They also burnt the village in 1544.",
        "longitude": -2.384426,
        "latitude": 55.853578
      },
      {
        "name": "Acomb",
        "description": "Scottish forces burnt this place in 1467, to the outrage of the Archbishop of York, who owned it.",
        "longitude": -2.111617,
        "latitude": 54.993378
      },
      {
        "name": "Aikwood Tower",
        "description": "Reivers stole 100 cattle from here in 1502.",
        "longitude": -2.923559,
        "latitude": 55.5214
      },
      {
        "name": "Akeld",
        "description": "Scots forces burnt this place in 1297. A gang of Kerrs also tried to ambush the Storeys between here and Humbleton in 1595.",
        "longitude": -2.068886,
        "latitude": 55.561361
      },
      {
        "name": "Allanbank",
        "description": "English forces burnt this place (then known as East Nisbet) in 1523 and 1545.",
        "longitude": -2.233586,
        "latitude": 55.784413
      },
      {
        "name": "Allanton",
        "description": "English forces burnt this place in 1482.",
        "longitude": -2.215142,
        "latitude": 55.780103
      },
      {
        "name": "Allendale",
        "description": "The Blenkinsopps of Bellister raided this place in 1605.",
        "longitude": -3.205263,
        "latitude": 54.693747
      },
      {
        "name": "Allerdale District",
        "description": "Scottish forces ravaged this place in 1297 and 1318.",
        "longitude": -3.196673,
        "latitude": 54.699064
      },
      {
        "name": "Allergarth",
        "description": "The Elliots stole 70 beasts and burnt houses here in 1596.",
        "longitude": -2.736741,
        "latitude": 55.035154
      },
      {
        "name": "Allerwash",
        "description": "Scottish reivers stole 19 beasts here in 1589.",
        "longitude": -2.214508,
        "latitude": 54.999571
      },
      {
        "name": "Alnham",
        "description": "Scottish reivers raided this place in 1532 and 1587.",
        "longitude": -2.008174,
        "latitude": 55.391548
      },
      {
        "name": "Alnmouth",
        "description": "Humphrey Lisle gang robbed the house of Thomas Dryden in 1527.",
        "longitude": -1.612905,
        "latitude": 55.390222
      },
      {
        "name": "Alnwick",
        "description": "",
        "longitude": -1.706376,
        "latitude": 55.408031
      },
      {
        "name": "Alwinton",
        "description": "Reivers stole 12 cattle from here in 1588.",
        "longitude": -2.126876,
        "latitude": 55.350545
      },
      {
        "name": "Amisfield",
        "description": "English forces burnt this place (including the crops) in 1547, with 4,000 beasts taken.",
        "longitude": -3.566491,
        "latitude": 55.12971
      },
      {
        "name": "Ancrum",
        "description": "A mixed gang of Dalglieshes, Turnbulls and English reivers burnt this place in 1510. English forces burnt the place in 1543 and 1545.",
        "longitude": -2.607183,
        "latitude": 55.51628
      },
      {
        "name": "Annan",
        "description": "English forces destroyed this town in 1513 (along with 33 other hamlets),1516, 1523, 1547 and 1596. The Maxwells fought the Johnstones here in 1585 and 1586. In 1592 English reivers stole 40 horses – and another 30 cattle in 1597.",
        "longitude": -3.253582,
        "latitude": 54.990886
      },
      {
        "name": "Annandale",
        "description": "English forces ravaged this area in 1297.",
        "longitude": -3.4,
        "latitude": 55.2
      },
      {
        "name": "Appleby",
        "description": "Scottish forces destroyed this place in 1174 (capturing the castle in a dawn raid), 1314, 1318, 1388 (the castle held out against 4 Scottish attacks in this period), 1457 and 1458.",
        "longitude": -2.486924,
        "latitude": 54.579552
      },
      {
        "name": "Applegarth",
        "description": "The Jardines fought off an English invasion here, with French help, in 1547. The Jardines were also attacked by the Grahams here in 1571, with 80 cattle stolen, corn burnt, 2 men killed and 1 kidnapped.",
        "longitude": -3.398927,
        "latitude": 55.134068
      },
      {
        "name": "Ardwell",
        "description": "Reivers burnt this place in 1508.",
        "longitude": -4.941927,
        "latitude": 54.770612
      },
      {
        "name": "Askerton",
        "description": "The Scotts stole 300 cattle from here in 1595, with the collusion of Thomas Carleton.",
        "longitude": -2.700804,
        "latitude": 55.020131
      },
      {
        "name": "Aspatria",
        "description": "Reivers stole 4 horses from here in 1592.",
        "longitude": -3.333129,
        "latitude": 54.763442
      },
      {
        "name": "Athelstaneford",
        "description": "Local man George Hepburn was found guilty of assisting the English in 1548.",
        "longitude": -2.747801,
        "latitude": 55.988056
      },
      {
        "name": "Attonburn",
        "description": "English forces destroyed this place in1545. The locals repelled 80 Berwick reivers from here in 1596.",
        "longitude": -2.286727,
        "latitude": 55.498111
      },
      {
        "name": "Auchen Castle",
        "description": "Scottish forces destroyed the castle in the 1300s, to prevent it falling into English hands. It was rebuilt and burnt by the English in 1547.",
        "longitude": -3.479175,
        "latitude": 55.32738
      },
      {
        "name": "Auchenrivock",
        "description": "English forces burnt the tower here, in 1513.",
        "longitude": -2.985327,
        "latitude": 55.114804
      },